[
  {
    "id": 1,
    "latitude": 51.512934,
    "longitude": -0.056781,
    "city": "Shadwell",
    "name": "Shadwell Apartment"
  },
  {
    "id": 2,
    "latitude": 51.58087,
    "longitude": -0.09859,
    "city": "Finsbury",
    "name": "TopHome Finsbury Park"
  },
  {
    "id": 3,
    "latitude": 51.56374,
    "longitude": -0.101555,
    "city": "Finsbury",
    "name": "1 Bedroom Flat Near Finsbury Park"
  },
  {
    "id": 4,
    "latitude": -34.86931,
    "longitude": 138.54754,
    "city": "Finsbury",
    "name": "Nightcap at Finsbury Hotel"
  },
  {
    "id": 5,
    "latitude": 51.571887,
    "longitude": -0.114838,
    "city": "Finsbury",
    "name": "Spacious and Modern Studio Near Finsbury Park"
  },
  {
    "id": 6,
    "latitude": 51.56583,
    "longitude": -0.101412,
    "city": "Finsbury",
    "name": "Queens Drive at Finsbury Park"
  },
  {
    "id": 7,
    "latitude": 51.53706,
    "longitude": -0.25199,
    "city": "Finsbury",
    "name": "Veeve - Finsbury Garden"
  },
  {
    "id": 8,
    "latitude": 51.57461,
    "longitude": -0.09632,
    "city": "Finsbury",
    "name": "Finsbury Park Luxury Apartments"
  },
  {
    "id": 9,
    "latitude": 51.563469,
    "longitude": -0.095805,
    "city": "Finsbury",
    "name": "Stylish And Modern 1 Bedroom Flat In Finsbury Park"
  },
  {
    "id": 10,
    "latitude": 51.569006,
    "longitude": -0.097439,
    "city": "Finsbury",
    "name": "Guestready - Modern 1BR Flat by Finsbury Park"
  },
  {
    "caption": "2 Bedroom House Near Wapping Station, London, England, United Kingdom",
    "id": 11,
    "latitude": 51.5056,
    "longitude": -0.065142,
    "city": "Wapping",
    "name": "2 Bedroom House Near Wapping Station"
  },
  {
    "caption": "The Wapping Wharf - Modern Bright 2bdr Flat on the Thames With Parking, London, England, United Kingdom",
    "id": 12,
    "latitude": 51.506862,
    "longitude": -0.052146,
    "city": "Wapping",
    "name": "The Wapping Wharf - Modern Bright 2bdr Flat on the Thames With Parking"
  },
  {
    "caption": "The Wapping Wharf - Modern & Bright 2bdr Flat on the Thames With Parking, London, England, United Kingdom",
    "id": 13,
    "latitude": 51.506872,
    "longitude": -0.051926,
    "city": "Wapping",
    "name": "The Wapping Wharf - Modern & Bright 2bdr Flat on the Thames With Parking"
  },
  {
    "caption": "Luxurious 2 Bed, With Amazing City Views - Wapping, London, England, United Kingdom",
    "id": 14,
    "latitude": 51.505198,
    "longitude": -0.069956,
    "city": "Wapping",
    "name": "Luxurious 2 Bed, With Amazing City Views - Wapping"
  },
  {
    "caption": "MAYFAIR Waves, Puri, Odisha, India",
    "id": 15,
    "latitude": 19.79865,
    "longitude": 85.83412,
    "city": "Mayfair",
    "name": "MAYFAIR Waves"
  },
  {
    "caption": "Hotel Mayfair, Paris, France",
    "id": 16,
    "latitude": 48.866076,
    "longitude": 2.326262,
    "city": "Mayfair",
    "name": "Hotel Mayfair"
  },
  {
    "caption": "Mayfair Hotel, Hull, England, United Kingdom",
    "id": 17,
    "latitude": 53.763387,
    "longitude": -0.351645,
    "city": "Mayfair",
    "name": "Mayfair Hotel"
  },
  {
    "caption": "Mayfair Gardens Surulere, Lagos, Lagos, Nigeria",
    "id": 18,
    "latitude": 6.492572,
    "longitude": 3.35831,
    "city": "Mayfair",
    "name": "Mayfair Gardens Surulere"
  },
  {
    "caption": "Mayfair Motel Emerald, Emerald, Queensland, Australia",
    "id": 19,
    "latitude": -23.555883,
    "longitude": 148.169996,
    "city": "Mayfair",
    "name": "Mayfair Motel Emerald"
  },
  {
    "caption": "Mayfair Resort, Changla Gali, Khyber Pakhtunkhwa, Pakistan",
    "id": 20,
    "latitude": 33.99512,
    "longitude": 73.38376,
    "city": "Mayfair",
    "name": "Mayfair Resort"
  },
  {
    "caption": "Veeve - <span class='highlighted'>Lambeth</span> Road, London, England, United Kingdom",
    "id": 21,
    "latitude": 51.496727,
    "longitude": -0.110507,
    "city": "Lambeth",
    "name": "Veeve - Lambeth Road"
  },
  {
    "caption": "Spacious Buckhingham Palace Hyde Park Lambeth, London, England, United Kingdom",
    "id": 22,
    "latitude": 51.494172,
    "longitude": -0.163799,
    "city": "Lambeth",
    "name": "Spacious Buckhingham Palace Hyde Park Lambeth"
  },
  {
    "caption": "Spacious and Colourful 2 Bedroom Flat in Lambeth, London, England, United Kingdom",
    "id": 23,
    "latitude": 51.496004,
    "longitude": -0.113465,
    "city": "Lambeth",
    "name": "Spacious and Colourful 2 Bedroom Flat in Lambeth"
  }
]
